[
    {
        "id":  "N8",
        "name":  "สถานีหมอชิต",
        "line":  "เส้นทางรถไฟฟ้าบีทีเอส สายสุขุมวิท (สีเขียวอ่อน)",
        "type":  "BTS",
        "lat":  13.80262297,
        "lng":  100.5538124
    },
    {
        "id":  "N7",
        "name":  "สถานีสะพานควาย",
        "line":  "เส้นทางรถไฟฟ้าบีทีเอส สายสุขุมวิท (สีเขียวอ่อน)",
        "type":  "BTS",
        "lat":  13.79386254,
        "lng":  100.5497496
    },
    {
        "id":  "N5",
        "name":  "สถานีอารีย์",
        "line":  "เส้นทางรถไฟฟ้าบีทีเอส สายสุขุมวิท (สีเขียวอ่อน)",
        "type":  "BTS",
        "lat":  13.77954984,
        "lng":  100.5445779
    },
    {
        "id":  "N4",
        "name":  "สถานีสนามเป้า",
        "line":  "เส้นทางรถไฟฟ้าบีทีเอส สายสุขุมวิท (สีเขียวอ่อน)",
        "type":  "BTS",
        "lat":  13.77255111,
        "lng":  100.542072
    },
    {
        "id":  "N3",
        "name":  "สถานีอนุสาวรีย์ชัยสมรภูมิ",
        "line":  "เส้นทางรถไฟฟ้าบีทีเอส สายสุขุมวิท (สีเขียวอ่อน)",
        "type":  "BTS",
        "lat":  13.76270271,
        "lng":  100.5370322
    },
    {
        "id":  "N2",
        "name":  "สถานีพญาไท",
        "line":  "เส้นทางรถไฟฟ้าบีทีเอส สายสุขุมวิท (สีเขียวอ่อน)",
        "type":  "BTS",
        "lat":  13.75695565,
        "lng":  100.5338228
    },
    {
        "id":  "N1",
        "name":  "สถานีราชเทวี",
        "line":  "เส้นทางรถไฟฟ้าบีทีเอส สายสุขุมวิท (สีเขียวอ่อน)",
        "type":  "BTS",
        "lat":  13.75181733,
        "lng":  100.5315607
    },
    {
        "id":  "W1",
        "name":  "สถานีสนามกีฬาแห่งชาติ",
        "line":  "เส้นทางรถไฟฟ้าบีทีเอส สายสีลม (สีเขียวเข้ม)",
        "type":  "BTS",
        "lat":  13.74650803,
        "lng":  100.5291682
    },
    {
        "id":  "CEN",
        "name":  "สถานีสยาม",
        "line":  "เส้นทางรถไฟฟ้าบีทีเอส สายสีลม (สีเขียวเข้ม)",
        "type":  "BTS",
        "lat":  13.74565407,
        "lng":  100.5342208
    },
    {
        "id":  "S1",
        "name":  "สถานีราชดำริ",
        "line":  "เส้นทางรถไฟฟ้าบีทีเอส สายสีลม (สีเขียวเข้ม)",
        "type":  "BTS",
        "lat":  13.73945669,
        "lng":  100.5394511
    },
    {
        "id":  "S2",
        "name":  "สถานีศาลาแดง",
        "line":  "เส้นทางรถไฟฟ้าบีทีเอส สายสีลม (สีเขียวเข้ม)",
        "type":  "BTS",
        "lat":  13.72851545,
        "lng":  100.5342387
    },
    {
        "id":  "S3",
        "name":  "สถานีช่องนนทรีย์",
        "line":  "เส้นทางรถไฟฟ้าบีทีเอส สายสีลม (สีเขียวเข้ม)",
        "type":  "BTS",
        "lat":  13.72385423,
        "lng":  100.5293727
    },
    {
        "id":  "S5",
        "name":  "สถานีสุรศักดิ์",
        "line":  "เส้นทางรถไฟฟ้าบีทีเอส สายสีลม (สีเขียวเข้ม)",
        "type":  "BTS",
        "lat":  13.71930141,
        "lng":  100.5215673
    },
    {
        "id":  "S6",
        "name":  "สถานีสะพานตากสิน",
        "line":  "เส้นทางรถไฟฟ้าบีทีเอส สายสีลม (สีเขียวเข้ม)",
        "type":  "BTS",
        "lat":  13.7188135,
        "lng":  100.5141766
    },
    {
        "id":  "E1",
        "name":  "สถานีชิดลม",
        "line":  "เส้นทางรถไฟฟ้าบีทีเอส สายสุขุมวิท (สีเขียวอ่อน)",
        "type":  "BTS",
        "lat":  13.74409858,
        "lng":  100.5430322
    },
    {
        "id":  "E2",
        "name":  "สถานีเพลินจิต",
        "line":  "เส้นทางรถไฟฟ้าบีทีเอส สายสุขุมวิท (สีเขียวอ่อน)",
        "type":  "BTS",
        "lat":  13.74302972,
        "lng":  100.5491559
    },
    {
        "id":  "E3",
        "name":  "สถานีนานา",
        "line":  "เส้นทางรถไฟฟ้าบีทีเอส สายสุขุมวิท (สีเขียวอ่อน)",
        "type":  "BTS",
        "lat":  13.74063159,
        "lng":  100.5553355
    },
    {
        "id":  "E4",
        "name":  "สถานีอโศก",
        "line":  "เส้นทางรถไฟฟ้าบีทีเอส สายสุขุมวิท (สีเขียวอ่อน)",
        "type":  "BTS",
        "lat":  13.73701993,
        "lng":  100.560425
    },
    {
        "id":  "E5",
        "name":  "สถานีพร้อมพงษ์",
        "line":  "เส้นทางรถไฟฟ้าบีทีเอส สายสุขุมวิท (สีเขียวอ่อน)",
        "type":  "BTS",
        "lat":  13.73051676,
        "lng":  100.5696098
    },
    {
        "id":  "E6",
        "name":  "สถานีทองหล่อ",
        "line":  "เส้นทางรถไฟฟ้าบีทีเอส สายสุขุมวิท (สีเขียวอ่อน)",
        "type":  "BTS",
        "lat":  13.72429562,
        "lng":  100.5784631
    },
    {
        "id":  "E7",
        "name":  "สถานีเอกมัย",
        "line":  "เส้นทางรถไฟฟ้าบีทีเอส สายสุขุมวิท (สีเขียวอ่อน)",
        "type":  "BTS",
        "lat":  13.71955261,
        "lng":  100.5851253
    },
    {
        "id":  "E8",
        "name":  "สถานีพระโขนง",
        "line":  "เส้นทางรถไฟฟ้าบีทีเอส สายสุขุมวิท (สีเขียวอ่อน)",
        "type":  "BTS",
        "lat":  13.71526531,
        "lng":  100.5911801
    },
    {
        "id":  "E9",
        "name":  "สถานีอ่อนนุช",
        "line":  "เส้นทางรถไฟฟ้าบีทีเอส สายสุขุมวิท (สีเขียวอ่อน)",
        "type":  "BTS",
        "lat":  13.70562929,
        "lng":  100.6010353
    },
    {
        "id":  "S7",
        "name":  "สถานีกรุงธนบุรี",
        "line":  "เส้นทางรถไฟฟ้าบีทีเอส สายสีลม (สีเขียวเข้ม)",
        "type":  "BTS",
        "lat":  13.72093655,
        "lng":  100.5025308
    },
    {
        "id":  "S8",
        "name":  "สถานีวงเวียนใหญ่",
        "line":  "เส้นทางรถไฟฟ้าบีทีเอส สายสีลม (สีเขียวเข้ม)",
        "type":  "BTS",
        "lat":  13.72107132,
        "lng":  100.495218
    },
    {
        "id":  "E10",
        "name":  "สถานีบางจาก",
        "line":  "เส้นทางรถไฟฟ้าบีทีเอส สายสุขุมวิท (สีเขียวอ่อน)",
        "type":  "BTS",
        "lat":  13.69671589,
        "lng":  100.605357
    },
    {
        "id":  "E11",
        "name":  "สถานีปุณณวิถี",
        "line":  "เส้นทางรถไฟฟ้าบีทีเอส สายสุขุมวิท (สีเขียวอ่อน)",
        "type":  "BTS",
        "lat":  13.68930755,
        "lng":  100.6089676
    },
    {
        "id":  "E12",
        "name":  "สถานีอุดมสุข",
        "line":  "เส้นทางรถไฟฟ้าบีทีเอส สายสุขุมวิท (สีเขียวอ่อน)",
        "type":  "BTS",
        "lat":  13.6798494,
        "lng":  100.6094764
    },
    {
        "id":  "E13",
        "name":  "สถานีบางนา",
        "line":  "เส้นทางรถไฟฟ้าบีทีเอส สายสุขุมวิท (สีเขียวอ่อน)",
        "type":  "BTS",
        "lat":  13.66812092,
        "lng":  100.6046455
    },
    {
        "id":  "E14",
        "name":  "สถานีแบริ่ง",
        "line":  "เส้นทางรถไฟฟ้าบีทีเอส สายสุขุมวิท (สีเขียวอ่อน)",
        "type":  "BTS",
        "lat":  13.66115213,
        "lng":  100.6017976
    },
    {
        "id":  "S9",
        "name":  "สถานีโพธิ์นิมิตร",
        "line":  "เส้นทางรถไฟฟ้าบีทีเอส สายสีลม (สีเขียวเข้ม)",
        "type":  "BTS",
        "lat":  13.71921979,
        "lng":  100.4859694
    },
    {
        "id":  "S10",
        "name":  "สถานีตลาดพลู",
        "line":  "เส้นทางรถไฟฟ้าบีทีเอส สายสีลม (สีเขียวเข้ม)",
        "type":  "BTS",
        "lat":  13.71403433,
        "lng":  100.4763857
    },
    {
        "id":  "S11",
        "name":  "สถานีวุฒากาศ",
        "line":  "เส้นทางรถไฟฟ้าบีทีเอส สายสีลม (สีเขียวเข้ม)",
        "type":  "BTS",
        "lat":  13.71222176,
        "lng":  100.4726205
    },
    {
        "id":  "S12",
        "name":  "สถานีบางหว้า",
        "line":  "เส้นทางรถไฟฟ้าบีทีเอส สายสีลม (สีเขียวเข้ม)",
        "type":  "BTS",
        "lat":  13.72078877,
        "lng":  100.4577966
    },
    {
        "id":  "N9",
        "name":  "สถานีห้าแยกลาดพร้าว",
        "line":  "เส้นทางรถไฟฟ้าบีทีเอส สายสุขุมวิท (สีเขียวอ่อน)",
        "type":  "BTS",
        "lat":  13.81668984,
        "lng":  100.5620546
    },
    {
        "id":  "N10",
        "name":  "สถานีพหลโยธิน 24",
        "line":  "เส้นทางรถไฟฟ้าบีทีเอส สายสุขุมวิท (สีเขียวอ่อน)",
        "type":  "BTS",
        "lat":  13.82413711,
        "lng":  100.566461
    },
    {
        "id":  "N11",
        "name":  "สถานีรัชโยธิน",
        "line":  "เส้นทางรถไฟฟ้าบีทีเอส สายสุขุมวิท (สีเขียวอ่อน)",
        "type":  "BTS",
        "lat":  13.82975669,
        "lng":  100.5697176
    },
    {
        "id":  "N13",
        "name":  "สถานีมหาวิทยาลัยเกษตรศาสตร์",
        "line":  "เส้นทางรถไฟฟ้าบีทีเอส สายสุขุมวิท (สีเขียวอ่อน)",
        "type":  "BTS",
        "lat":  13.84225543,
        "lng":  100.5771187
    },
    {
        "id":  "N12",
        "name":  "สถานีเสนานิคม",
        "line":  "เส้นทางรถไฟฟ้าบีทีเอส สายสุขุมวิท (สีเขียวอ่อน)",
        "type":  "BTS",
        "lat":  13.83639349,
        "lng":  100.5736196
    },
    {
        "id":  "N16",
        "name":  "สถานีกรมทหารราบที่ 11",
        "line":  "เส้นทางรถไฟฟ้าบีทีเอส สายสุขุมวิท (สีเขียวอ่อน)",
        "type":  "BTS",
        "lat":  13.86764879,
        "lng":  100.5920557
    },
    {
        "id":  "N15",
        "name":  "สถานีบางบัว",
        "line":  "เส้นทางรถไฟฟ้าบีทีเอส สายสุขุมวิท (สีเขียวอ่อน)",
        "type":  "BTS",
        "lat":  13.85601494,
        "lng":  100.5851953
    },
    {
        "id":  "N14",
        "name":  "สถานีกรมป่าไม้",
        "line":  "เส้นทางรถไฟฟ้าบีทีเอส สายสุขุมวิท (สีเขียวอ่อน)",
        "type":  "BTS",
        "lat":  13.85025175,
        "lng":  100.5818259
    },
    {
        "id":  "G2",
        "name":  "สถานีเจริญนคร",
        "line":  "เส้นทางรถไฟฟ้า สายสีทอง",
        "type":  "BTS",
        "lat":  13.72646504,
        "lng":  100.509057
    },
    {
        "id":  "G3",
        "name":  "สถานีคลองสาน",
        "line":  "เส้นทางรถไฟฟ้า สายสีทอง",
        "type":  "BTS",
        "lat":  13.73038781,
        "lng":  100.5076304
    },
    {
        "id":  "S4",
        "name":  "สถานีเซนต์หลุยส์",
        "line":  "เส้นทางรถไฟฟ้าบีทีเอส สายสีลม (สีเขียวเข้ม)",
        "type":  "BTS",
        "lat":  13.72081548,
        "lng":  100.5266994
    },
    {
        "id":  "N24",
        "name":  "สถานีคูคต",
        "line":  "เส้นทางรถไฟฟ้าบีทีเอส สายสุขุมวิท (สีเขียวอ่อน)",
        "type":  "BTS",
        "lat":  13.93238496,
        "lng":  100.6465697
    },
    {
        "id":  "N23",
        "name":  "สถานีแยก คปอ.",
        "line":  "เส้นทางรถไฟฟ้าบีทีเอส สายสุขุมวิท (สีเขียวอ่อน)",
        "type":  "BTS",
        "lat":  13.92504891,
        "lng":  100.6258727
    },
    {
        "id":  "N22",
        "name":  "สถานีพิพิธภัณฑ์กองทัพอากาศ",
        "line":  "เส้นทางรถไฟฟ้าบีทีเอส สายสุขุมวิท (สีเขียวอ่อน)",
        "type":  "BTS",
        "lat":  13.9178731,
        "lng":  100.6216492
    },
    {
        "id":  "N21",
        "name":  "สถานีโรงพยาบาลภูมิพลอดุลยเดช",
        "line":  "เส้นทางรถไฟฟ้าบีทีเอส สายสุขุมวิท (สีเขียวอ่อน)",
        "type":  "BTS",
        "lat":  13.91058043,
        "lng":  100.6173142
    },
    {
        "id":  "N20",
        "name":  "สถานีสะพานใหม่",
        "line":  "เส้นทางรถไฟฟ้าบีทีเอส สายสุขุมวิท (สีเขียวอ่อน)",
        "type":  "BTS",
        "lat":  13.8964893,
        "lng":  100.609037
    },
    {
        "id":  "N19",
        "name":  "สถานีสายหยุด",
        "line":  "เส้นทางรถไฟฟ้าบีทีเอส สายสุขุมวิท (สีเขียวอ่อน)",
        "type":  "BTS",
        "lat":  13.88841275,
        "lng":  100.6042717
    },
    {
        "id":  "N18",
        "name":  "สถานีพหลโยธิน 59",
        "line":  "เส้นทางรถไฟฟ้าบีทีเอส สายสุขุมวิท (สีเขียวอ่อน)",
        "type":  "BTS",
        "lat":  13.88251503,
        "lng":  100.6007986
    },
    {
        "id":  "N17",
        "name":  "สถานีวัดพระศรีมหาธาตุ",
        "line":  "เส้นทางรถไฟฟ้าบีทีเอส สายสุขุมวิท (สีเขียวอ่อน)",
        "type":  "BTS",
        "lat":  13.87525635,
        "lng":  100.596715
    },
    {
        "id":  "E15",
        "name":  "สถานีสำโรง",
        "line":  "เส้นทางรถไฟฟ้าบีทีเอส สายสุขุมวิท (สีเขียวอ่อน)",
        "type":  "BTS",
        "lat":  13.64656537,
        "lng":  100.5958207
    },
    {
        "id":  "E16",
        "name":  "สถานีปู่เจ้า",
        "line":  "เส้นทางรถไฟฟ้าบีทีเอส สายสุขุมวิท (สีเขียวอ่อน)",
        "type":  "BTS",
        "lat":  13.63738772,
        "lng":  100.5920527
    },
    {
        "id":  "E17",
        "name":  "สถานีช้างเอราวัณ",
        "line":  "เส้นทางรถไฟฟ้าบีทีเอส สายสุขุมวิท (สีเขียวอ่อน)",
        "type":  "BTS",
        "lat":  13.62147272,
        "lng":  100.590181
    },
    {
        "id":  "E18",
        "name":  "สถานีโรงเรียนนายเรือ",
        "line":  "เส้นทางรถไฟฟ้าบีทีเอส สายสุขุมวิท (สีเขียวอ่อน)",
        "type":  "BTS",
        "lat":  13.60848025,
        "lng":  100.5949182
    },
    {
        "id":  "E19",
        "name":  "สถานีปากน้ำ",
        "line":  "เส้นทางรถไฟฟ้าบีทีเอส สายสุขุมวิท (สีเขียวอ่อน)",
        "type":  "BTS",
        "lat":  13.60216596,
        "lng":  100.597103
    },
    {
        "id":  "E20",
        "name":  "สถานีศรีนครินทร์",
        "line":  "เส้นทางรถไฟฟ้าบีทีเอส สายสุขุมวิท (สีเขียวอ่อน)",
        "type":  "BTS",
        "lat":  13.59196551,
        "lng":  100.6090107
    },
    {
        "id":  "E21",
        "name":  "สถานีแพรกษา",
        "line":  "เส้นทางรถไฟฟ้าบีทีเอส สายสุขุมวิท (สีเขียวอ่อน)",
        "type":  "BTS",
        "lat":  13.58421744,
        "lng":  100.6078495
    },
    {
        "id":  "E22",
        "name":  "สถานีสายลวด",
        "line":  "เส้นทางรถไฟฟ้าบีทีเอส สายสุขุมวิท (สีเขียวอ่อน)",
        "type":  "BTS",
        "lat":  13.57779717,
        "lng":  100.6054316
    },
    {
        "id":  "E23",
        "name":  "สถานีเคหะฯ",
        "line":  "เส้นทางรถไฟฟ้าบีทีเอส สายสุขุมวิท (สีเขียวอ่อน)",
        "type":  "BTS",
        "lat":  13.56773098,
        "lng":  100.6077108
    },
    {
        "id":  "G1",
        "name":  "สถานีกรุงธนบุรี",
        "line":  "เส้นทางรถไฟฟ้า สายสีทอง",
        "type":  "BTS",
        "lat":  13.72106499,
        "lng":  100.5037059
    },
    {
        "id":  "BL01",
        "name":  "สถานีท่าพระ",
        "line":  "เส้นทางรถไฟฟ้ามหานคร สายสีน้ำเงิน",
        "type":  "MRT",
        "lat":  13.7296593,
        "lng":  100.4740885
    },
    {
        "id":  "BL02",
        "name":  "สถานีจรัญฯ 13",
        "line":  "เส้นทางรถไฟฟ้ามหานคร สายสีน้ำเงิน",
        "type":  "MRT",
        "lat":  13.74005671,
        "lng":  100.4707321
    },
    {
        "id":  "BL03",
        "name":  "สถานีไฟฉาย",
        "line":  "เส้นทางรถไฟฟ้ามหานคร สายสีน้ำเงิน",
        "type":  "MRT",
        "lat":  13.7557305,
        "lng":  100.4693411
    },
    {
        "id":  "BL04",
        "name":  "สถานีบางขุนนนท์",
        "line":  "เส้นทางรถไฟฟ้ามหานคร สายสีน้ำเงิน",
        "type":  "MRT",
        "lat":  13.76334485,
        "lng":  100.4733652
    },
    {
        "id":  "BL05",
        "name":  "สถานีบางยี่ขัน",
        "line":  "เส้นทางรถไฟฟ้ามหานคร สายสีน้ำเงิน",
        "type":  "MRT",
        "lat":  13.77747388,
        "lng":  100.4853472
    },
    {
        "id":  "BL06",
        "name":  "สถานีสิรินธร",
        "line":  "เส้นทางรถไฟฟ้ามหานคร สายสีน้ำเงิน",
        "type":  "MRT",
        "lat":  13.783808,
        "lng":  100.4932301
    },
    {
        "id":  "BL07",
        "name":  "สถานีบางพลัด",
        "line":  "เส้นทางรถไฟฟ้ามหานคร สายสีน้ำเงิน",
        "type":  "MRT",
        "lat":  13.79238778,
        "lng":  100.5048644
    },
    {
        "id":  "BL08",
        "name":  "สถานีบางอ้อ",
        "line":  "เส้นทางรถไฟฟ้ามหานคร สายสีน้ำเงิน",
        "type":  "MRT",
        "lat":  13.79899246,
        "lng":  100.5097903
    },
    {
        "id":  "BL09",
        "name":  "สถานีบางโพ",
        "line":  "เส้นทางรถไฟฟ้ามหานคร สายสีน้ำเงิน",
        "type":  "MRT",
        "lat":  13.80640723,
        "lng":  100.5211039
    },
    {
        "id":  "BL11",
        "name":  "สถานีบางซื่อ",
        "line":  "เส้นทางรถไฟฟ้ามหานคร สายสีน้ำเงิน",
        "type":  "MRT",
        "lat":  13.80235091,
        "lng":  100.5410375
    },
    {
        "id":  "BL12",
        "name":  "สถานีกำแพงเพชร",
        "line":  "เส้นทางรถไฟฟ้ามหานคร สายสีน้ำเงิน",
        "type":  "MRT",
        "lat":  13.79793257,
        "lng":  100.547936
    },
    {
        "id":  "BL13",
        "name":  "สถานีสวนจตุจักร",
        "line":  "เส้นทางรถไฟฟ้ามหานคร สายสีน้ำเงิน",
        "type":  "MRT",
        "lat":  13.80295124,
        "lng":  100.5533613
    },
    {
        "id":  "BL14",
        "name":  "สถานีพหลโยธิน",
        "line":  "เส้นทางรถไฟฟ้ามหานคร สายสีน้ำเงิน",
        "type":  "MRT",
        "lat":  13.81296882,
        "lng":  100.5615673
    },
    {
        "id":  "BL15",
        "name":  "สถานีลาดพร้าว",
        "line":  "เส้นทางรถไฟฟ้ามหานคร สายสีน้ำเงิน",
        "type":  "MRT",
        "lat":  13.8065239,
        "lng":  100.572901
    },
    {
        "id":  "BL16",
        "name":  "สถานีรัชดาภิเษก",
        "line":  "เส้นทางรถไฟฟ้ามหานคร สายสีน้ำเงิน",
        "type":  "MRT",
        "lat":  13.79895711,
        "lng":  100.5744781
    },
    {
        "id":  "BL17",
        "name":  "สถานีสุทธิสาร",
        "line":  "เส้นทางรถไฟฟ้ามหานคร สายสีน้ำเงิน",
        "type":  "MRT",
        "lat":  13.78945997,
        "lng":  100.5740167
    },
    {
        "id":  "BL18",
        "name":  "สถานีห้วยขวาง",
        "line":  "เส้นทางรถไฟฟ้ามหานคร สายสีน้ำเงิน",
        "type":  "MRT",
        "lat":  13.77869774,
        "lng":  100.5734915
    },
    {
        "id":  "BL19",
        "name":  "สถานีศูนย์วัฒนธรรมแห่งประเทศไทย",
        "line":  "เส้นทางรถไฟฟ้ามหานคร สายสีน้ำเงิน",
        "type":  "MRT",
        "lat":  13.76630887,
        "lng":  100.5700702
    },
    {
        "id":  "BL20",
        "name":  "สถานีพระราม 9",
        "line":  "เส้นทางรถไฟฟ้ามหานคร สายสีน้ำเงิน",
        "type":  "MRT",
        "lat":  13.75784279,
        "lng":  100.5652421
    },
    {
        "id":  "BL21",
        "name":  "สถานีเพชรบุรี",
        "line":  "เส้นทางรถไฟฟ้ามหานคร สายสีน้ำเงิน",
        "type":  "MRT",
        "lat":  13.74919525,
        "lng":  100.5633537
    },
    {
        "id":  "BL22",
        "name":  "สถานีสุขุมวิท",
        "line":  "เส้นทางรถไฟฟ้ามหานคร สายสีน้ำเงิน",
        "type":  "MRT",
        "lat":  13.73738427,
        "lng":  100.5614168
    },
    {
        "id":  "BL23",
        "name":  "สถานีศูนย์การประชุมแห่งชาติสิริกิติ์",
        "line":  "เส้นทางรถไฟฟ้ามหานคร สายสีน้ำเงิน",
        "type":  "MRT",
        "lat":  13.72262377,
        "lng":  100.5599045
    },
    {
        "id":  "BL24",
        "name":  "สถานีคลองเตย",
        "line":  "เส้นทางรถไฟฟ้ามหานคร สายสีน้ำเงิน",
        "type":  "MRT",
        "lat":  13.72229036,
        "lng":  100.5540033
    },
    {
        "id":  "BL25",
        "name":  "สถานีลุมพินี",
        "line":  "เส้นทางรถไฟฟ้ามหานคร สายสีน้ำเงิน",
        "type":  "MRT",
        "lat":  13.7257317,
        "lng":  100.5457784
    },
    {
        "id":  "BL26",
        "name":  "สถานีสีลม",
        "line":  "เส้นทางรถไฟฟ้ามหานคร สายสีน้ำเงิน",
        "type":  "MRT",
        "lat":  13.72928274,
        "lng":  100.5373135
    },
    {
        "id":  "BL27",
        "name":  "สถานีสามย่าน",
        "line":  "เส้นทางรถไฟฟ้ามหานคร สายสีน้ำเงิน",
        "type":  "MRT",
        "lat":  13.73222813,
        "lng":  100.5302684
    },
    {
        "id":  "BL28",
        "name":  "สถานีหัวลำโพง",
        "line":  "เส้นทางรถไฟฟ้ามหานคร สายสีน้ำเงิน",
        "type":  "MRT",
        "lat":  13.73755186,
        "lng":  100.5171633
    },
    {
        "id":  "BL29",
        "name":  "สถานีวัดมังกร",
        "line":  "เส้นทางรถไฟฟ้ามหานคร สายสีน้ำเงิน",
        "type":  "MRT",
        "lat":  13.74228753,
        "lng":  100.5099535
    },
    {
        "id":  "BL30",
        "name":  "สถานีสามยอด",
        "line":  "เส้นทางรถไฟฟ้ามหานคร สายสีน้ำเงิน",
        "type":  "MRT",
        "lat":  13.74705362,
        "lng":  100.5021701
    },
    {
        "id":  "BL31",
        "name":  "สถานีสนามไชย",
        "line":  "เส้นทางรถไฟฟ้ามหานคร สายสีน้ำเงิน",
        "type":  "MRT",
        "lat":  13.74434176,
        "lng":  100.4947367
    },
    {
        "id":  "BL32",
        "name":  "สถานีอิสรภาพ",
        "line":  "เส้นทางรถไฟฟ้ามหานคร สายสีน้ำเงิน",
        "type":  "MRT",
        "lat":  13.73831268,
        "lng":  100.4857197
    },
    {
        "id":  "BL33",
        "name":  "สถานีบางไผ่",
        "line":  "เส้นทางรถไฟฟ้ามหานคร สายสีน้ำเงิน",
        "type":  "MRT",
        "lat":  13.72473175,
        "lng":  100.4651442
    },
    {
        "id":  "BL34",
        "name":  "สถานีบางหว้า",
        "line":  "เส้นทางรถไฟฟ้ามหานคร สายสีน้ำเงิน",
        "type":  "MRT",
        "lat":  13.72070709,
        "lng":  100.4578516
    },
    {
        "id":  "BL35",
        "name":  "สถานีเพชรเกษม48",
        "line":  "เส้นทางรถไฟฟ้ามหานคร สายสีน้ำเงิน",
        "type":  "MRT",
        "lat":  13.71541044,
        "lng":  100.4454476
    },
    {
        "id":  "BL36",
        "name":  "สถานีภาษีเจริญ",
        "line":  "เส้นทางรถไฟฟ้ามหานคร สายสีน้ำเงิน",
        "type":  "MRT",
        "lat":  13.7128901,
        "lng":  100.4342906
    },
    {
        "id":  "BL37",
        "name":  "สถานีบางแค",
        "line":  "เส้นทางรถไฟฟ้ามหานคร สายสีน้ำเงิน",
        "type":  "MRT",
        "lat":  13.71189286,
        "lng":  100.4222739
    },
    {
        "id":  "BL38",
        "name":  "สถานีหลักสอง",
        "line":  "เส้นทางรถไฟฟ้ามหานคร สายสีน้ำเงิน",
        "type":  "MRT",
        "lat":  13.7108635,
        "lng":  100.4094434
    },
    {
        "id":  "PP01",
        "name":  "สถานีคลองบางไผ่",
        "line":  "เส้นทางรถไฟฟ้ามหานคร สายสีม่วง",
        "type":  "MRT",
        "lat":  13.89238779,
        "lng":  100.4082208
    },
    {
        "id":  "PP02",
        "name":  "สถานีตลาดบางใหญ่",
        "line":  "เส้นทางรถไฟฟ้ามหานคร สายสีม่วง",
        "type":  "MRT",
        "lat":  13.88103687,
        "lng":  100.4092903
    },
    {
        "id":  "PP03",
        "name":  "สถานีสามแยกบางใหญ่",
        "line":  "เส้นทางรถไฟฟ้ามหานคร สายสีม่วง",
        "type":  "MRT",
        "lat":  13.87469609,
        "lng":  100.4193558
    },
    {
        "id":  "PP04",
        "name":  "สถานีบางพลู",
        "line":  "เส้นทางรถไฟฟ้ามหานคร สายสีม่วง",
        "type":  "MRT",
        "lat":  13.87575986,
        "lng":  100.4337962
    },
    {
        "id":  "PP05",
        "name":  "สถานีบางรักใหญ่",
        "line":  "เส้นทางรถไฟฟ้ามหานคร สายสีม่วง",
        "type":  "MRT",
        "lat":  13.87660724,
        "lng":  100.4449415
    },
    {
        "id":  "PP06",
        "name":  "สถานีบางรักน้อยท่าอิฐ",
        "line":  "เส้นทางรถไฟฟ้ามหานคร สายสีม่วง",
        "type":  "MRT",
        "lat":  13.87480634,
        "lng":  100.45595
    },
    {
        "id":  "PP07",
        "name":  "สถานีไทรม้า",
        "line":  "เส้นทางรถไฟฟ้ามหานคร สายสีม่วง",
        "type":  "MRT",
        "lat":  13.87047546,
        "lng":  100.4667018
    },
    {
        "id":  "PP08",
        "name":  "สถานีสะพานพระนั่งเกล้า",
        "line":  "เส้นทางรถไฟฟ้ามหานคร สายสีม่วง",
        "type":  "MRT",
        "lat":  13.87030425,
        "lng":  100.4801163
    },
    {
        "id":  "PP09",
        "name":  "สถานีแยกนนทบุรี 1",
        "line":  "เส้นทางรถไฟฟ้ามหานคร สายสีม่วง",
        "type":  "MRT",
        "lat":  13.86593454,
        "lng":  100.4941053
    },
    {
        "id":  "PP10",
        "name":  "สถานีบางกระสอ",
        "line":  "เส้นทางรถไฟฟ้ามหานคร สายสีม่วง",
        "type":  "MRT",
        "lat":  13.86165786,
        "lng":  100.5046064
    },
    {
        "id":  "PP11",
        "name":  "สถานีศูนย์ราชการนนทบุรี",
        "line":  "เส้นทางรถไฟฟ้ามหานคร สายสีม่วง",
        "type":  "MRT",
        "lat":  13.86018661,
        "lng":  100.5130529
    },
    {
        "id":  "PP12",
        "name":  "สถานีกระทรวงสาธารณสุข",
        "line":  "เส้นทางรถไฟฟ้ามหานคร สายสีม่วง",
        "type":  "MRT",
        "lat":  13.8485518,
        "lng":  100.5147168
    },
    {
        "id":  "PP13",
        "name":  "สถานีแยกติวานนท์",
        "line":  "เส้นทางรถไฟฟ้ามหานคร สายสีม่วง",
        "type":  "MRT",
        "lat":  13.83953803,
        "lng":  100.514973
    },
    {
        "id":  "PP14",
        "name":  "สถานีวงศ์สว่าง",
        "line":  "เส้นทางรถไฟฟ้ามหานคร สายสีม่วง",
        "type":  "MRT",
        "lat":  13.82986686,
        "lng":  100.5264918
    },
    {
        "id":  "PP15",
        "name":  "สถานีบางซ่อน",
        "line":  "เส้นทางรถไฟฟ้ามหานคร สายสีม่วง",
        "type":  "MRT",
        "lat":  13.82010348,
        "lng":  100.5324499
    },
    {
        "id":  "PP16",
        "name":  "สถานีเตาปูน",
        "line":  "เส้นทางรถไฟฟ้ามหานคร สายสีม่วง",
        "type":  "MRT",
        "lat":  13.80614838,
        "lng":  100.5307586
    },
    {
        "id":  "YL01",
        "name":  "สถานีลาดพร้าว",
        "line":  "เส้นทางรถไฟฟ้ามหานคร สายสีเหลือง",
        "type":  "MRT",
        "lat":  13.80697302,
        "lng":  100.5747539
    },
    {
        "id":  "YL02",
        "name":  "สถานีภาวนา",
        "line":  "เส้นทางรถไฟฟ้ามหานคร สายสีเหลือง",
        "type":  "MRT",
        "lat":  13.80013312,
        "lng":  100.5841789
    },
    {
        "id":  "YL03",
        "name":  "สถานีโชคชัย 4",
        "line":  "เส้นทางรถไฟฟ้ามหานคร สายสีเหลือง",
        "type":  "MRT",
        "lat":  13.79423668,
        "lng":  100.5944237
    },
    {
        "id":  "YL04",
        "name":  "สถานีลาดพร้าว 71",
        "line":  "เส้นทางรถไฟฟ้ามหานคร สายสีเหลือง",
        "type":  "MRT",
        "lat":  13.78703755,
        "lng":  100.6075445
    },
    {
        "id":  "YL05",
        "name":  "สถานีลาดพร้าว 83",
        "line":  "เส้นทางรถไฟฟ้ามหานคร สายสีเหลือง",
        "type":  "MRT",
        "lat":  13.78367139,
        "lng":  100.6136253
    },
    {
        "id":  "YL06",
        "name":  "สถานีมหาดไทย",
        "line":  "เส้นทางรถไฟฟ้ามหานคร สายสีเหลือง",
        "type":  "MRT",
        "lat":  13.77843808,
        "lng":  100.6232072
    },
    {
        "id":  "YL07",
        "name":  "สถานีลาดพร้าว 101",
        "line":  "เส้นทางรถไฟฟ้ามหานคร สายสีเหลือง",
        "type":  "MRT",
        "lat":  13.77469684,
        "lng":  100.6299138
    },
    {
        "id":  "YL08",
        "name":  "สถานีบางกะปิ",
        "line":  "เส้นทางรถไฟฟ้ามหานคร สายสีเหลือง",
        "type":  "MRT",
        "lat":  13.76903632,
        "lng":  100.6397694
    },
    {
        "id":  "YL09",
        "name":  "สถานีแยกลำสาลี",
        "line":  "เส้นทางรถไฟฟ้ามหานคร สายสีเหลือง",
        "type":  "MRT",
        "lat":  13.76181247,
        "lng":  100.6454616
    },
    {
        "id":  "YL10",
        "name":  "สถานีศรีกรีฑา",
        "line":  "เส้นทางรถไฟฟ้ามหานคร สายสีเหลือง",
        "type":  "MRT",
        "lat":  13.75040076,
        "lng":  100.6448085
    },
    {
        "id":  "YL11",
        "name":  "สถานีหัวหมาก",
        "line":  "เส้นทางรถไฟฟ้ามหานคร สายสีเหลือง",
        "type":  "MRT",
        "lat":  13.73614434,
        "lng":  100.6410568
    },
    {
        "id":  "YL12",
        "name":  "สถานีกลันตัน",
        "line":  "เส้นทางรถไฟฟ้ามหานคร สายสีเหลือง",
        "type":  "MRT",
        "lat":  13.72527482,
        "lng":  100.6417763
    },
    {
        "id":  "YL13",
        "name":  "สถานีศรีนุช",
        "line":  "เส้นทางรถไฟฟ้ามหานคร สายสีเหลือง",
        "type":  "MRT",
        "lat":  13.71111235,
        "lng":  100.6442758
    },
    {
        "id":  "YL14",
        "name":  "สถานีศรีนครินทร์ 38",
        "line":  "เส้นทางรถไฟฟ้ามหานคร สายสีเหลือง",
        "type":  "MRT",
        "lat":  13.70113658,
        "lng":  100.6465176
    },
    {
        "id":  "YL15",
        "name":  "สถานีสวนหลวง ร.9",
        "line":  "เส้นทางรถไฟฟ้ามหานคร สายสีเหลือง",
        "type":  "MRT",
        "lat":  13.69086507,
        "lng":  100.6470192
    },
    {
        "id":  "YL16",
        "name":  "สถานีศรีอุดม",
        "line":  "เส้นทางรถไฟฟ้ามหานคร สายสีเหลือง",
        "type":  "MRT",
        "lat":  13.67664325,
        "lng":  100.6462085
    },
    {
        "id":  "YL17",
        "name":  "สถานีศรีเอี่ยม",
        "line":  "เส้นทางรถไฟฟ้ามหานคร สายสีเหลือง",
        "type":  "MRT",
        "lat":  13.66761207,
        "lng":  100.6450458
    },
    {
        "id":  "YL18",
        "name":  "สถานีศรีลาซาล",
        "line":  "เส้นทางรถไฟฟ้ามหานคร สายสีเหลือง",
        "type":  "MRT",
        "lat":  13.65496793,
        "lng":  100.6421205
    },
    {
        "id":  "YL19",
        "name":  "สถานีศรีแบริ่ง",
        "line":  "เส้นทางรถไฟฟ้ามหานคร สายสีเหลือง",
        "type":  "MRT",
        "lat":  13.64355462,
        "lng":  100.6362095
    },
    {
        "id":  "YL20",
        "name":  "สถานีศรีด่าน",
        "line":  "เส้นทางรถไฟฟ้ามหานคร สายสีเหลือง",
        "type":  "MRT",
        "lat":  13.63320965,
        "lng":  100.6300014
    },
    {
        "id":  "YL21",
        "name":  "สถานีศรีเทพา",
        "line":  "เส้นทางรถไฟฟ้ามหานคร สายสีเหลือง",
        "type":  "MRT",
        "lat":  13.62994906,
        "lng":  100.6227147
    },
    {
        "id":  "YL22",
        "name":  "สถานีทิพวัล",
        "line":  "เส้นทางรถไฟฟ้ามหานคร สายสีเหลือง",
        "type":  "MRT",
        "lat":  13.63677534,
        "lng":  100.6099328
    },
    {
        "id":  "YL23",
        "name":  "สถานีสำโรง",
        "line":  "เส้นทางรถไฟฟ้ามหานคร สายสีเหลือง",
        "type":  "MRT",
        "lat":  13.64500554,
        "lng":  100.5966143
    }
]
